[{"name":"CEDIS EL COECILLO","address":"Av. Industria Automotriz 1,203, Col. El Coecillo, Toluca, Edo. de México","lat":"19.298326","lng":"-99.597096"},{"name":"CEDIS NORTE","address":"Blvd. De los Ferrocarriles No. 247, Esq. Norte 35, Col. Industrial Vallejo","lat":"19.480542","lng":"-99.159159"},{"name":"CEDIS SUR","address":"Eje 3 Oriente casi esq. Ermita Iztapalapa","lat":"19.355307","lng":"-99.112842"},{"name":"DISTRIBUIDORA CHALCO","address":"Km. 40 Carretera México – Cuautla, Chalco, Edo. De México.","lat":"19.255843","lng":"-98.889109"},{"name":"DISTRIBUIDORA COACALCO","address":"Av. José López Bonaga s/n, Col. Guadalupe Victoria, Ecatepec Edo. De México","lat":"19.628300","lng":"-99.078529"},{"name":"DISTRIBUIDORA CUAUTITLÁN","address":"Delfín Sur No. 18, Fraccionamiento Industrial Cuamatla, Cuautitlán Izcalli, Edo. De México","lat":"19.664331","lng":"-99.187982"},{"name":"DISTRIBUIDORA LOS REYES","address":"KM. 22.3 DE LA CARRETERA MÉXICO – TEXCOCO, COL. LA MAGDALENA ATLICPAC, LOS REYES LA PAZ, EDO. DE MÉXICO","lat":"19.357352","lng":"-98.957302"},{"name":"DISTRIBUIDORA TEXCOCO","address":"Camino a Lomas de Cristo No. 3 Fraccionamiento Lomas de Cristo","lat":"19.464787","lng":"-98.890138"},{"name":"DISTRIBUIDORA TLALNEPANTLA","address":"Abraham Lincon No. 1, Col. Fraccionamiento Industrial Puente de Vigas, Tlalnepantla.","lat":"19.523783","lng":"-99.208681"},{"name":"DISTRIBUIDORA TLALPAN","address":"Calzada de Tlalpan No. 3001 Col. El Reloj","lat":"19.314512","lng":"-99.140174"},{"name":"DISTRIBUIDORA ZARAGOZA","address":"Oriente 237 No. 108 Esq. Av. Ignacio Zaragoza Col. Agrícola Oriental","lat":"19.406566","lng":"-99.073332"}]